[{"key":"vn-qn","name":"Quảng Ninh","lat":21.223,"lng":107.181},{"key":"vn-kh","name":"Khánh Hòa","lat":12.6049,"lng":109.359},{"key":"vn-tg","name":"Tiền Giang","lat":10.4581,"lng":106.217},{"key":"vn-bv","name":"Bà Rịa-Vũng Tàu","lat":10.3969,"lng":107.143},{"key":"vn-bu","name":"Bình Thuận","lat":11.1284,"lng":108.232},{"key":"vn-hc","name":"Hồ Chí Minh city","lat":10.409,"lng":106.926},{"key":"vn-br","name":"Bến Tre","lat":10.171,"lng":106.496},{"key":"vn-st","name":"Sóc Trăng","lat":9.5614,"lng":105.9},{"key":"vn-pt","name":"Phú Thọ","lat":21.3127,"lng":105.143},{"key":"vn-yb","name":"Yên Bái","lat":21.7484,"lng":104.512},{"key":"vn-hd","name":"Hải Dương","lat":20.9613,"lng":106.364},{"key":"vn-bn","name":"Bắc Ninh","lat":21.098,"lng":106.117},{"key":"vn-317","name":"Hung Yen","lat":20.8085,"lng":106.076},{"key":"vn-nb","name":"Ninh Bình","lat":20.2722,"lng":105.852},{"key":"vn-hm","name":"Hà Nam","lat":20.5569,"lng":105.985},{"key":"vn-ho","name":"Hòa Bình","lat":20.7292,"lng":105.34},{"key":"vn-vc","name":"Vĩnh Phúc","lat":21.3455,"lng":105.549},{"key":"vn-318","name":"Ha Noi","lat":21.1306,"lng":105.872},{"key":"vn-bg","name":"Bắc Giang","lat":21.3512,"lng":106.493},{"key":"vn-tb","name":"Thái Bình","lat":20.5303,"lng":106.371},{"key":"vn-ld","name":"Lâm Đồng","lat":11.5362,"lng":108},{"key":"vn-bp","name":"Bình Phước","lat":11.6805,"lng":106.897},{"key":"vn-py","name":"Phú Yên","lat":13.1647,"lng":109.064},{"key":"vn-bd","name":"Bình Định","lat":14.1075,"lng":108.971},{"key":"vn-724","name":"Gia Lai","lat":13.8493,"lng":108.156},{"key":"vn-qg","name":"Quảng Ngãi","lat":14.9971,"lng":108.686},{"key":"vn-dt","name":"Đồng Tháp","lat":10.6644,"lng":105.586},{"key":"vn-la","name":"Long An","lat":10.6869,"lng":106.134},{"key":"vn-3623","name":"Haiphong","lat":20.79,"lng":106.635},{"key":"vn-337","name":"Hau Giang","lat":9.84353,"lng":105.663},{"key":"vn-bl","name":"Bắc Liêu","lat":9.33941,"lng":105.573},{"key":"vn-vl","name":"Vĩnh Long","lat":10.1042,"lng":105.969},{"key":"vn-tn","name":"Tây Ninh","lat":11.4121,"lng":106.14},{"key":"vn-ty","name":"Thái Nguyên","lat":21.5812,"lng":105.887},{"key":"vn-li","name":"Lai Chau","lat":22.3502,"lng":103.255},{"key":"vn-311","name":"Son La","lat":21.3011,"lng":104.159},{"key":"vn-hg","name":"Hà Giang","lat":22.7655,"lng":104.965},{"key":"vn-nd","name":"Nam Định","lat":20.2343,"lng":106.254},{"key":"vn-328","name":"Ha Tinh","lat":18.3563,"lng":105.799},{"key":"vn-na","name":"Nghệ An","lat":19.3548,"lng":104.827},{"key":"vn-qb","name":"Quảng Bình","lat":17.4691,"lng":106.357},{"key":"vn-723","name":"Dak Lak","lat":12.7691,"lng":108.133},{"key":"vn-nt","name":"Ninh Thuận","lat":11.6242,"lng":108.925},{"key":"vn-6365","name":"Đăk Nông","lat":12.1425,"lng":107.66},{"key":"vn-299","name":"Kon Tum","lat":14.7451,"lng":107.969},{"key":"vn-300","name":"Quảng Nam","lat":15.6535,"lng":107.955},{"key":"vn-qt","name":"Quảng Trị","lat":16.7204,"lng":106.973},{"key":"vn-tt","name":"Huế","lat":16.312,"lng":107.634},{"key":"vn-da","name":"Da Nang","lat":16.0912,"lng":108.102},{"key":"vn-ag","name":"An Giang","lat":10.5736,"lng":105.154},{"key":"vn-cm","name":"Cà Mau","lat":9.05545,"lng":105.073},{"key":"vn-tv","name":"Trà Vinh","lat":9.82817,"lng":106.289},{"key":"vn-cb","name":"Cao Bằng","lat":22.7595,"lng":106.047},{"key":"vn-kg","name":"Kiên Giang","lat":9.85962,"lng":105.284},{"key":"vn-lo","name":"Lào Cai","lat":22.3559,"lng":104.096},{"key":"vn-db","name":"Điện Biên","lat":21.7487,"lng":103.226},{"key":"vn-ls","name":"Lạng Sơn","lat":21.7826,"lng":106.724},{"key":"vn-th","name":"Thanh Hóa","lat":20.0917,"lng":105.215},{"key":"vn-307","name":"Bắc Kạn","lat":22.1476,"lng":105.874},{"key":"vn-tq","name":"Tuyên Quang","lat":22.131,"lng":105.229},{"key":"vn-bi","name":"Bình Dương","lat":11.1382,"lng":106.659},{"key":"vn-333","name":"Can Tho","lat":10.2421,"lng":105.685}]